[
    {"lon": 144.970, "lat": -37.846, "zoom": 14, "location": "Melbourne", "country": "Australian", "name": "Albert Park Circuit", "id": "au-1953"},
    {"lon": 121.221, "lat": 31.340, "zoom": 14, "location": "Shanghai", "country": "Chinese", "name": "Shanghai International Circuit", "id": "cn-2004"},
    {"lon": 136.534, "lat": 34.844, "zoom": 15, "location": "Suzuka", "country": "Japanese", "name": "Suzuka International Racing Course", "id": "jp-1962"},
    {"lon": 50.512, "lat": 26.031, "zoom": 15, "location": "Sakhir", "country": "Bahrain", "name": "Bahrain International Circuit", "id": "bh-2002"},
    {"lon": 39.104, "lat": 21.632, "zoom": 14, "location": "Jeddah", "country": "Saudi Arabian", "name": "Jeddah Corniche Circuit", "id": "sa-2021"},
    {"lon": -80.239, "lat": 25.958, "zoom": 15, "location": "Miami", "country": "Miami", "name": "Miami International Autodrome", "id": "us-2022"},
    {"lon": 11.713, "lat": 44.341, "zoom": 15, "location": "Imola", "country": "Emilia Romagna", "name": "Autodromo Enzo e Dino Ferrari", "id": "it-1953"},
    {"lon": 7.429, "lat": 43.737, "zoom": 15, "location": "Monaco", "country": "Monaco", "name": "Circuit de Monaco", "id": "mc-1929"},
    {"lon": 2.259, "lat": 41.569, "zoom": 14, "location": "Barcelona", "country": "Spanish", "name": "Circuit de Barcelona-Catalunya", "id": "es-1991"},
    {"lon": -73.525, "lat": 45.506, "zoom": 14, "location": "Montreal", "country": "Canadian", "name": "Circuit Gilles-Villeneuve", "id": "ca-1978"},
    {"lon": 14.761, "lat": 47.223, "zoom": 15, "location": "Spielberg", "country": "Austrian", "name": "Red Bull Ring", "id": "at-1969"},
    {"lon": -1.017, "lat": 52.072, "zoom": 14, "location": "Silverstone", "country": "British", "name": "Silverstone Circuit", "id": "gb-1948"},
    {"lon": 5.971, "lat": 50.436, "zoom": 13, "location": "Spa Francorchamps", "country": "Belgian", "name": "Circuit de Spa-Francorchamps", "id": "be-1925"},
    {"lon": 19.250, "lat": 47.583, "zoom": 14, "location": "Budapest", "country": "Hungarian", "name": "Hungaroring", "id": "hu-1986"},
    {"lon": 4.541, "lat": 52.389, "zoom": 15, "location": "Zandvoort", "country": "Dutch", "name": "Circuit Zandvoort", "id": "nl-1948"},
    {"lon": 9.290, "lat": 45.621, "zoom": 13, "location": "Monza", "country": "Italian", "name": "Autodromo Nazionale Monza", "id": "it-1922"},
    {"lon": 49.842, "lat": 40.369, "zoom": 14, "location": "Baku", "country": "Azerbaijan", "name": "Baku City Circuit", "id": "az-2016"},
    {"lon": 103.859, "lat": 1.291, "zoom": 15, "location": "Singapore", "country": "Singapore", "name": "Marina Bay Street Circuit", "id": "sg-2008"},
    {"lon": -97.633, "lat": 30.135, "zoom": 15, "location": "Austin", "country": "United States", "name": "Circuit of the Americas", "id": "us-2012"},
    {"lon": -99.091, "lat": 19.402, "zoom": 15, "location": "Mexico City", "country": "Mexico City", "name": "Autódromo Hermanos Rodríguez", "id": "mx-1962"},
    {"lon": -46.698, "lat": -23.702, "zoom": 15, "location": "Sao Paulo", "country": "Sao Paulo", "name": "Autódromo José Carlos Pace - Interlagos", "id": "br-1940"},
    {"lon": -115.168, "lat": 36.116, "zoom": 14, "location": "Las Vegas", "country": "Las Vegas", "name": "Las Vegas Street Circuit", "id": "us-2023"},
    {"lon": 51.454, "lat": 25.49, "zoom": 15, "location": "Lusail", "country": "Qatar", "name": "Losail International Circuit", "id": "qa-2004"},
    {"lon": 54.601, "lat": 24.471, "zoom": 14, "location": "Yas Marina", "country": "Abu Dhabi", "name": "Yas Marina Circuit", "id": "ae-2009"}
]